City_ID,City,Country,Max Temp,Current Description,Lat,Lng,Hotel Name
0,Pasvalys,LT,67.32,broken clouds,56.06,24.4,
1,Atuona,PF,77.83,clear sky,-9.8,-139.03,
2,Ribeira Grande,PT,72.01,broken clouds,38.52,-28.7,
3,Talnakh,RU,61.65,light rain,69.49,88.4,
5,Avarua,CK,77.05,few clouds,-21.21,-159.78,
6,Teguldet,RU,61.92,overcast clouds,57.31,88.17,
7,Lieksa,FI,60.94,broken clouds,63.32,30.02,
8,Ponta Do Sol,PT,70.72,clear sky,32.67,-17.1,
10,Yellowknife,CA,61.29,broken clouds,62.46,-114.35,
11,Hamilton,US,76.35,clear sky,39.18,-84.53,
16,Thompson,CA,65.61,overcast clouds,55.74,-97.86,
19,Rikitea,PF,74.21,overcast clouds,-23.12,-134.97,
22,Pombia,IT,69.6,broken clouds,45.65,8.63,
23,Saint-Philippe,RE,67.59,light rain,-21.36,55.77,
29,San Cristobal,VE,65.46,broken clouds,7.77,-72.22,
30,Vanimo,PG,84.04,moderate rain,-2.67,141.3,
31,Mackay,AU,79.68,broken clouds,-21.15,149.2,
33,Hithadhoo,MV,80.74,broken clouds,-0.6,73.08,
34,Acajutla,SV,79.81,moderate rain,13.59,-89.83,
35,Torbay,CA,65.75,light rain,47.67,-52.73,
36,Mackenzie,CA,65.19,broken clouds,55.3,-123.17,
37,Airai,TL,76.06,overcast clouds,-8.93,125.41,
38,Asheville,US,74.55,few clouds,35.6,-82.55,
42,Timbiqui,CO,74.19,scattered clouds,2.77,-77.67,
43,Saskylakh,RU,66.76,few clouds,71.92,114.08,
44,Agadir,MA,70.25,clear sky,30.42,-9.6,
47,Mahebourg,MU,68.29,moderate rain,-20.41,57.7,
48,High Level,CA,64.06,few clouds,58.52,-117.14,
49,Huarmey,PE,65.46,scattered clouds,-10.07,-78.15,
51,Mount Isa,AU,85.77,clear sky,-20.73,139.5,
54,Sorada,IN,80.44,overcast clouds,19.75,84.43,
55,Dingle,PH,87.33,broken clouds,11.0,122.67,
56,Asfi,MA,70.36,overcast clouds,32.3,-9.24,
57,Vaini,TO,69.96,broken clouds,-21.2,-175.2,
58,Merauke,ID,82.36,overcast clouds,-8.47,140.33,
60,Hilo,US,80.33,moderate rain,19.73,-155.09,
61,Butaritari,KI,81.66,overcast clouds,3.07,172.79,
63,Pyapon,MM,85.14,overcast clouds,16.28,95.68,
66,Metro,ID,83.97,broken clouds,-5.11,105.31,
71,Migori,KE,64.72,overcast clouds,-1.06,34.47,
72,Yeniseysk,RU,63.55,overcast clouds,58.45,92.17,
74,Souillac,MU,68.38,heavy intensity rain,-20.52,57.52,
75,Kahului,US,81.97,scattered clouds,20.89,-156.47,
76,Ciudad Bolivar,VE,76.1,overcast clouds,8.12,-63.55,
77,Broken Hill,AU,62.78,clear sky,-31.95,141.43,
78,Madang,PG,85.19,broken clouds,-5.22,145.8,
80,Praia Da Vitoria,PT,72.75,clear sky,38.73,-27.07,
82,Albany,US,67.39,overcast clouds,42.6,-73.97,
85,Guerrero Negro,MX,70.16,clear sky,27.98,-114.06,
86,Anloga,GH,75.96,overcast clouds,5.79,0.9,
87,Jamestown,US,69.39,clear sky,42.1,-79.24,
88,Yarada,IN,86.32,mist,17.65,83.27,
89,Palaikastron,GR,77.74,clear sky,35.2,26.25,
90,Kodiak,US,62.11,overcast clouds,57.79,-152.41,
91,Suffolk,US,78.93,broken clouds,40.87,-72.8,
93,Arawa,PG,85.1,light rain,-6.21,155.54,
94,Termiz,UZ,82.49,clear sky,37.22,67.28,
95,Pangai,TO,72.27,light rain,-19.8,-174.35,
96,Vila Franca Do Campo,PT,68.41,few clouds,37.72,-25.43,
99,Lata,PT,62.92,scattered clouds,40.16,-8.33,
101,Gilgit,PK,89.24,scattered clouds,35.92,74.31,
102,Georgetown,MY,87.73,few clouds,5.41,100.34,
103,Carnarvon,AU,69.87,overcast clouds,-24.87,113.63,
105,Cayenne,GF,82.09,clear sky,4.93,-52.33,
106,Guarapari,BR,73.29,clear sky,-20.67,-40.5,
107,Namatanai,PG,84.83,light rain,-3.67,152.43,
108,Flin Flon,CA,64.96,clear sky,54.77,-101.86,
109,Port Alfred,ZA,60.28,few clouds,-33.59,26.89,
111,Arraial Do Cabo,BR,70.21,clear sky,-22.97,-42.03,
112,Hasaki,JP,88.29,overcast clouds,35.73,140.83,
113,Altoona,US,73.29,broken clouds,40.52,-78.39,
114,Geraldton,AU,67.12,overcast clouds,-28.77,114.6,
116,Zaysan,KZ,71.2,clear sky,47.47,84.87,
117,Shahi,IN,83.28,overcast clouds,28.55,79.32,
118,Kutum,SD,68.67,overcast clouds,14.2,24.67,
119,Nikolskoye,RU,67.8,overcast clouds,59.7,30.79,
120,Kapaa,US,82.72,light rain,22.08,-159.32,
121,Puerto Ayora,EC,71.38,few clouds,-0.74,-90.35,
123,Nouadhibou,MR,68.13,few clouds,20.93,-17.03,
124,La Ronge,CA,64.62,scattered clouds,55.1,-105.28,
127,Port Blair,IN,83.05,overcast clouds,11.67,92.75,
128,Jibuti,DJ,85.42,broken clouds,11.5,42.5,
129,Palmer,US,67.48,broken clouds,42.16,-72.33,
130,Bilma,NE,86.54,overcast clouds,18.69,12.92,
131,Alice Springs,AU,74.75,overcast clouds,-23.7,133.88,
132,East London,ZA,63.9,clear sky,-33.02,27.91,
133,Mizdah,LY,66.67,clear sky,31.45,12.98,
135,Lagoa,PT,69.8,overcast clouds,39.05,-27.98,
136,Kamaishi,JP,74.35,overcast clouds,39.27,141.88,
138,Soe,ID,82.63,broken clouds,-9.86,124.28,
139,Asau,RO,72.95,few clouds,46.43,26.4,
140,Grand Gaube,MU,68.4,heavy intensity rain,-20.01,57.66,
142,The Valley,AI,81.82,clear sky,18.22,-63.06,
145,Touros,BR,74.3,few clouds,-5.2,-35.46,
148,Manavalakurichi,IN,80.69,overcast clouds,8.13,77.3,
150,Bandarbeyla,SO,79.11,scattered clouds,9.49,50.81,
151,Awallan,PH,84.18,light rain,17.92,121.91,
153,Khatanga,RU,85.77,clear sky,71.97,102.5,
155,Alofi,NU,75.09,light rain,-19.06,-169.92,
156,Jagadhri,IN,78.42,moderate rain,30.17,77.3,
157,Harlingen,US,86.34,clear sky,26.19,-97.7,
159,Lahijan,IR,77.54,overcast clouds,37.21,50.0,
160,Shubarkuduk,KZ,71.53,overcast clouds,49.14,56.49,
161,Bambous Virieux,MU,68.25,moderate rain,-20.34,57.76,
162,Kraskino,RU,83.14,scattered clouds,42.71,130.78,
164,Abu Samrah,SY,76.6,clear sky,35.3,37.18,
166,Eatonton,US,78.39,overcast clouds,33.33,-83.39,
168,Sulangan,PH,84.99,overcast clouds,11.14,123.72,
170,Kijang,KR,81.43,scattered clouds,35.24,129.21,
171,Faanui,PF,77.81,light rain,-16.48,-151.75,
172,Half Moon Bay,US,79.32,few clouds,37.46,-122.43,
173,Norman Wells,CA,64.44,broken clouds,65.28,-126.83,
177,La Plaine,DM,78.44,broken clouds,15.33,-61.25,
181,Diamantino,BR,73.38,overcast clouds,-14.41,-56.45,
182,Bethel,US,75.11,light rain,41.37,-73.41,
183,Cortes,ES,69.6,broken clouds,41.94,-1.44,
184,Nurota,UZ,78.89,clear sky,40.56,65.69,
185,Cravo Norte,CO,76.78,few clouds,6.3,-70.2,
186,Hanzhong,CN,81.45,scattered clouds,33.07,107.03,
188,Georgiyevka,KZ,71.64,clear sky,43.04,74.71,
192,Nombre De Dios,MX,73.81,broken clouds,23.85,-104.23,
194,Sao Raimundo Das Mangabeiras,BR,78.12,scattered clouds,-7.02,-45.48,
195,Xining,CN,65.73,scattered clouds,36.62,101.77,
196,Fortuna,US,75.47,overcast clouds,40.6,-124.16,
197,Batemans Bay,AU,69.1,overcast clouds,-35.72,150.18,
201,Jacksonville,US,79.05,mist,30.33,-81.66,
202,Vung Tau,VN,85.48,scattered clouds,10.35,107.08,
203,Abnub,EG,78.93,clear sky,27.27,31.15,
204,Khasan,RU,82.51,scattered clouds,42.43,130.64,
205,Katobu,ID,84.07,broken clouds,-4.94,122.53,
207,Uvinza,TZ,62.78,scattered clouds,-5.1,30.39,
208,Tessalit,ML,85.42,broken clouds,20.2,1.01,
209,Neiafu,TO,70.48,light rain,-18.65,-173.98,
210,Namibe,AO,64.45,clear sky,-15.2,12.15,
213,Olga,RU,83.39,clear sky,43.74,135.29,
214,Tetiyiv,UA,64.72,overcast clouds,49.38,29.66,
217,Port Charlotte,US,84.25,clear sky,26.98,-82.09,
218,Baiyin,CN,76.82,clear sky,36.56,104.21,
219,Grandview,US,82.35,clear sky,38.89,-94.53,
220,Saint-Augustin,CA,60.49,overcast clouds,51.23,-58.65,
221,Vancouver,CA,75.09,clear sky,49.25,-123.12,
222,Turkistan,KZ,84.04,clear sky,43.0,68.0,
223,Pacific Grove,US,76.24,scattered clouds,36.62,-121.92,
224,Lasa,IT,61.54,broken clouds,46.62,10.7,
225,Genc,TR,67.42,clear sky,38.75,40.56,
228,Champua,IN,75.09,light rain,22.08,85.67,
229,Srivardhan,IN,80.94,overcast clouds,18.03,73.02,
230,Kavieng,PG,84.09,light rain,-2.57,150.8,
231,Tecpan,GT,60.12,broken clouds,14.76,-90.99,
232,Pingliang,CN,72.45,light rain,35.54,106.69,
233,Neryungri,RU,74.32,overcast clouds,56.67,124.65,
234,Yerbogachen,RU,84.6,clear sky,61.28,108.01,
236,Benguela,AO,68.61,broken clouds,-12.58,13.41,
237,Murgab,TM,76.87,clear sky,37.5,61.97,
238,Flinders,AU,73.18,broken clouds,-34.58,150.86,
239,Vila Velha,BR,73.35,clear sky,-20.33,-40.29,
241,Atambua,ID,85.17,broken clouds,-9.11,124.89,
242,Lamu,KE,75.7,broken clouds,-2.27,40.9,
243,Ambunti,PG,88.65,scattered clouds,-4.24,142.84,
244,Pundaguitan,PH,84.67,scattered clouds,6.37,126.17,
245,Westminster,US,87.44,few clouds,39.84,-105.04,
246,Agustin Codazzi,CO,72.16,scattered clouds,10.03,-73.24,
248,Bolobo,CD,69.01,clear sky,-2.17,16.23,
249,Umea,SE,60.91,clear sky,63.83,20.26,
250,Eyl,SO,78.57,overcast clouds,7.98,49.82,
251,Goreloye,RU,65.53,broken clouds,52.94,41.5,
252,Nhulunbuy,AU,81.21,broken clouds,-12.23,136.77,
253,Tanout,NE,79.29,overcast clouds,14.97,8.89,
254,Gopalur,IN,77.04,broken clouds,16.62,77.8,
255,Honiara,SB,84.33,overcast clouds,-9.43,159.95,
256,Saint Anthony,US,85.84,clear sky,45.02,-93.22,
258,Papar,MY,89.6,overcast clouds,5.73,115.93,
259,Shar,KZ,68.22,clear sky,49.59,81.05,
260,Shelburne,CA,64.27,clear sky,44.08,-80.2,
263,North Mankato,US,85.14,few clouds,44.17,-94.03,
264,Yushan,CN,84.09,light rain,31.38,120.95,
265,Visby,SE,63.77,overcast clouds,57.64,18.3,
266,Mogocha,RU,60.37,light rain,53.73,119.77,
268,Seminole,US,79.38,clear sky,28.71,-81.21,
269,Marawi,PH,84.65,overcast clouds,8.0,124.29,
270,Natitingou,BJ,69.96,light rain,10.3,1.38,
271,Bonthe,SL,76.57,overcast clouds,7.53,-12.51,
272,High River,CA,74.46,overcast clouds,50.58,-113.87,
273,Hobyo,SO,76.51,overcast clouds,5.35,48.53,
275,Rudnogorsk,RU,85.64,clear sky,57.26,103.75,
276,Ampanihy,MG,60.49,clear sky,-24.7,44.75,
277,Maxixe,MZ,62.65,clear sky,-23.86,35.35,
278,Cabo San Lucas,MX,87.1,clear sky,22.89,-109.91,
281,Uvalde,US,83.14,clear sky,29.37,-99.77,
282,Isla Mujeres,MX,82.45,few clouds,21.23,-86.73,
283,Lompoc,US,71.56,mist,34.64,-120.46,
285,Dong Hoi,VN,87.19,overcast clouds,17.48,106.6,
286,Durant,US,81.41,clear sky,33.99,-96.37,
287,Iwanai,JP,89.49,clear sky,42.97,140.51,
288,Aklavik,CA,61.52,light rain,68.22,-135.01,
291,Biak,ID,82.89,broken clouds,-0.91,122.88,
293,Zeya,RU,70.32,light rain,53.75,127.27,
294,Polovinnoye,RU,60.44,broken clouds,54.79,65.99,
296,Sao Caetano De Odivelas,BR,74.3,broken clouds,-0.75,-48.02,
298,Benghazi,LY,78.31,clear sky,32.12,20.07,
299,Evensk,RU,61.07,broken clouds,61.95,159.23,
302,Salalah,OM,77.09,light intensity drizzle,17.02,54.09,
305,Saint-Joseph,RE,66.58,light rain,-21.37,55.62,
308,Shimoda,JP,83.17,overcast clouds,34.67,138.95,
309,Xingcheng,CN,84.22,light rain,40.62,120.72,
310,Vanavara,RU,86.27,clear sky,60.34,102.28,
311,Pisco,PE,63.01,clear sky,-13.7,-76.22,
313,Agucadoura,PT,63.25,clear sky,41.43,-8.78,
314,Peleduy,RU,88.52,clear sky,59.63,112.74,
316,Kathmandu,NP,75.42,broken clouds,27.72,85.32,
317,Vao,NC,68.31,scattered clouds,-22.67,167.48,
318,San Patricio,US,84.83,few clouds,28.02,-97.52,
322,Nisia Floresta,BR,74.21,clear sky,-6.09,-35.21,
323,Buala,SB,83.64,light rain,-8.14,159.59,
324,Marsh Harbour,BS,83.35,scattered clouds,26.54,-77.06,
325,Boa Vista,BR,78.78,broken clouds,2.82,-60.67,
326,Los Llanos De Aridane,ES,69.55,overcast clouds,28.66,-17.92,
327,Caucaia,BR,80.04,few clouds,-3.74,-38.65,
328,Portland,US,84.2,scattered clouds,45.52,-122.68,
329,Bouca,CF,68.59,overcast clouds,6.51,18.27,
330,Urumqi,CN,81.55,clear sky,43.8,87.6,
332,Male,MV,82.06,light rain,4.17,73.51,
333,Rantepao,ID,81.14,overcast clouds,-2.97,119.9,
334,Labuhan,ID,84.78,clear sky,-6.88,112.21,
335,Sao Filipe,CV,73.83,clear sky,14.9,-24.5,
337,Sitka,US,60.69,broken clouds,57.05,-135.33,
338,Sioux Lookout,CA,64.94,clear sky,50.1,-91.92,
339,Ndele,CF,66.76,overcast clouds,8.41,20.65,
340,Xinyang,CN,74.86,light rain,32.12,114.07,
341,Manaure,CO,81.95,overcast clouds,11.78,-72.44,
343,Rudbar,AF,87.75,overcast clouds,30.15,62.6,
344,Zhigalovo,RU,82.2,broken clouds,54.81,105.16,
345,Faya,SA,63.12,broken clouds,18.39,42.45,
346,Negombo,LK,82.45,scattered clouds,7.21,79.84,
347,Athabasca,CA,67.15,clear sky,54.72,-113.29,
349,Kununurra,AU,89.58,few clouds,-15.77,128.73,
352,Adeje,ES,70.93,broken clouds,28.12,-16.73,
353,Nuwara Eliya,LK,62.56,overcast clouds,6.97,80.78,
355,Cururupu,BR,74.61,scattered clouds,-1.83,-44.87,
357,Cabedelo,BR,74.07,few clouds,-6.98,-34.83,
358,Prabumulih,ID,84.11,broken clouds,-3.45,104.25,
359,Yulara,AU,73.24,scattered clouds,-25.24,130.99,
360,Umarkot,PK,83.26,light rain,25.36,69.74,
362,Manggar,ID,83.52,overcast clouds,-2.88,108.27,
363,Boyolangu,ID,80.71,broken clouds,-8.12,111.89,
364,Humboldt,US,66.67,overcast clouds,40.67,-123.92,
365,Bud,US,77.56,clear sky,39.45,-86.18,
366,Fairbanks,US,60.1,light rain,64.84,-147.72,
367,Bac Lieu,VN,87.78,scattered clouds,9.29,105.72,
368,Renqiu,CN,78.31,light rain,38.7,116.09,
369,Mandalay,MM,82.49,overcast clouds,21.97,96.08,
370,Riwaka,NZ,60.44,clear sky,-41.08,173.0,
371,Krasna Lipa,CZ,64.76,overcast clouds,50.48,13.36,
372,Luanda,AO,71.42,light rain,-8.84,13.23,
373,Isabela,PH,88.39,few clouds,6.71,121.97,
374,Kurilsk,RU,72.41,few clouds,45.23,147.88,
376,Dwarka,IN,82.63,overcast clouds,22.24,68.97,
378,Batagay,RU,60.57,clear sky,67.63,134.63,
379,Bakel,SN,85.17,overcast clouds,14.9,-12.46,
380,Gigmoto,PH,87.01,overcast clouds,13.78,124.39,
381,Grants,US,66.43,overcast clouds,35.15,-107.85,
382,Dombarovskiy,RU,68.23,scattered clouds,50.76,59.54,
383,Durres,AL,68.18,clear sky,41.32,19.44,
384,Bucerias,MX,77.99,scattered clouds,20.75,-105.33,
385,Yenagoa,NG,72.14,overcast clouds,4.92,6.26,
386,Le Vauclin,MQ,79.84,few clouds,14.55,-60.84,
387,Ambikapur,IN,72.19,overcast clouds,23.12,83.2,
389,Nalut,LY,76.19,clear sky,30.33,10.85,
391,Olinda,BR,74.93,few clouds,-8.01,-34.86,
392,Jurm,AF,76.59,clear sky,36.86,70.83,
394,Podgorica,ME,73.18,clear sky,42.44,19.26,
395,Kangasala,FI,63.14,broken clouds,61.46,24.08,
396,Zhezkazgan,KZ,70.2,clear sky,47.8,67.71,
398,Wencheng,CN,81.09,light rain,33.06,113.8,
399,Paulo Afonso,BR,66.18,few clouds,-9.41,-38.21,
400,Jos,NG,61.48,overcast clouds,9.92,8.9,
401,Broome,US,67.55,mist,42.25,-75.83,
405,Ciudad Guayana,VE,78.53,overcast clouds,8.35,-62.65,
406,Rio Grande City,US,86.11,scattered clouds,26.38,-98.82,
407,Bayanday,RU,77.63,clear sky,53.07,105.51,
408,Atlantic City,US,78.31,clear sky,39.36,-74.42,
410,Pangoa,PE,67.71,scattered clouds,-12.12,-73.0,
412,Atar,MR,86.11,few clouds,20.52,-13.05,
413,Ventspils,LV,69.73,scattered clouds,57.39,21.56,
414,Mapastepec,MX,77.05,broken clouds,15.43,-92.9,
415,Freeport,US,79.05,broken clouds,40.66,-73.58,
416,Qui Nhon,VN,89.8,overcast clouds,13.77,109.23,
419,Baltimore,US,81.57,clear sky,39.29,-76.61,
420,Bengkulu,ID,82.89,broken clouds,-3.8,102.27,
421,Phuket,TH,87.1,broken clouds,8.0,98.25,
422,Buta,CD,70.57,overcast clouds,2.79,24.73,
423,Batticaloa,LK,84.61,overcast clouds,7.71,81.69,
424,Vangaindrano,MG,64.17,light rain,-23.35,47.6,
425,Wapakoneta,US,75.42,clear sky,40.57,-84.19,
426,Mayo,US,81.12,clear sky,38.89,-76.51,
427,Botwood,CA,67.89,broken clouds,49.15,-55.35,
430,Alta Floresta,BR,72.03,clear sky,-9.88,-56.09,
431,Cockburn Town,TC,81.61,few clouds,21.46,-71.14,
432,Tiznit,MA,69.24,clear sky,29.58,-9.5,
433,Bongandanga,CD,67.91,scattered clouds,1.5,21.05,
435,Oda,JP,81.41,scattered clouds,35.18,132.5,
437,Zubtsov,RU,62.55,broken clouds,56.18,34.59,
438,Matara,LK,81.45,overcast clouds,5.95,80.54,
439,Abu Zabad,SD,73.0,light rain,12.35,29.25,
441,Kulhudhuffushi,MV,82.0,scattered clouds,6.62,73.07,
443,Theog,IN,63.46,moderate rain,31.12,77.35,
444,Kumta,IN,79.95,overcast clouds,14.42,74.4,
445,Karratha,AU,76.75,clear sky,-20.74,116.85,
448,Buraydah,SA,89.83,few clouds,26.33,43.98,
449,Bathsheba,BB,81.21,few clouds,13.22,-59.52,
450,Belmonte,BR,70.3,clear sky,-15.86,-38.88,
451,Union City,US,81.75,clear sky,37.6,-122.02,
452,Naze,JP,79.09,broken clouds,28.37,129.48,
454,Lorengau,PG,84.58,clear sky,-2.02,147.27,
455,Komsomolskiy,UZ,83.12,clear sky,40.43,71.72,
456,Timra,SE,63.68,scattered clouds,62.49,17.33,
457,Solnechnyy,RU,83.64,scattered clouds,50.72,136.63,
458,Tambacounda,SN,79.3,overcast clouds,13.75,-13.76,
459,Valentin Gomez Farias,MX,76.87,few clouds,28.22,-106.58,
460,Aykhal,RU,85.05,scattered clouds,66.0,111.5,
461,Lake Charles,US,78.78,clear sky,30.21,-93.2,
462,Isangel,VU,74.55,clear sky,-19.55,169.27,
463,Nicoya,CR,72.95,overcast clouds,10.15,-85.45,
464,Linxia,CN,70.77,clear sky,35.6,103.21,
465,Alexandria,EG,78.89,clear sky,31.22,29.96,
466,Adrar,MR,85.05,overcast clouds,20.5,-10.07,
467,Trinidad,BO,64.22,broken clouds,-14.83,-64.9,
468,Buchanan,LR,76.08,overcast clouds,5.88,-10.05,
469,Booue,GA,69.28,scattered clouds,-0.09,11.94,
470,Santa Elena,EC,70.79,overcast clouds,-2.23,-80.85,
471,Ostersund,SE,60.62,scattered clouds,63.18,14.64,
474,Plouzane,FR,60.85,broken clouds,48.38,-4.62,
475,Jalingo,NG,70.27,overcast clouds,8.88,11.37,
476,Shetpe,KZ,74.59,overcast clouds,44.17,52.12,
477,Dongsheng,CN,75.29,overcast clouds,39.82,109.98,
479,Hailar,CN,75.07,broken clouds,49.2,119.7,
480,Tonekabon,IR,80.11,broken clouds,36.82,50.87,
482,Penzance,GB,60.01,clear sky,50.12,-5.54,
483,Nemuro,JP,67.8,few clouds,43.32,145.57,
484,Sault Sainte Marie,CA,64.96,haze,46.52,-84.33,
485,Hualmay,PE,63.84,scattered clouds,-11.1,-77.61,
487,Andros Town,BS,82.36,overcast clouds,24.7,-77.77,
489,Diveyevo,RU,61.63,overcast clouds,55.04,43.24,
491,Port Macquarie,AU,79.9,clear sky,-31.43,152.92,
492,Yambio,SS,66.45,overcast clouds,4.57,28.4,
493,Hambantota,LK,83.48,overcast clouds,6.12,81.12,
494,Ishigaki,JP,83.5,overcast clouds,24.34,124.16,
495,Minsk,BY,64.15,overcast clouds,53.9,27.57,
496,Ravar,IR,80.78,clear sky,31.27,56.81,
499,Samarai,PG,79.39,moderate rain,-10.62,150.67,
501,Poum,NC,72.55,clear sky,-20.23,164.02,
502,Port Hardy,CA,61.7,broken clouds,50.7,-127.42,
503,Makakilo City,US,86.32,scattered clouds,21.35,-158.09,
505,Sobolevo,RU,62.71,overcast clouds,54.43,31.9,
506,Zhigansk,RU,64.27,broken clouds,66.77,123.37,
507,Yatou,CN,85.46,light rain,37.15,122.38,
508,Juneau,US,61.21,light rain,58.3,-134.42,
509,Kawalu,ID,78.82,broken clouds,-7.38,108.21,
512,Northam,GB,61.66,few clouds,51.03,-4.22,
513,Puerto Escondido,MX,77.83,broken clouds,15.85,-97.07,
515,Majene,ID,83.61,overcast clouds,-3.54,118.97,
516,Peniche,PT,66.72,clear sky,39.36,-9.38,
517,Beyneu,KZ,77.52,overcast clouds,45.32,55.2,
518,Yaan,NG,69.22,overcast clouds,7.38,8.57,
519,Mpraeso,GH,66.81,overcast clouds,6.59,-0.73,
520,Nishihara,JP,87.46,broken clouds,26.18,127.76,
521,Columbus,US,75.99,clear sky,39.96,-83.0,
522,Patiya,BD,77.22,light rain,22.29,91.98,
523,Sao Joao Da Barra,BR,69.67,clear sky,-21.64,-41.05,
525,Langenhagen,DE,64.78,clear sky,52.45,9.75,
526,Santa Isabel Do Rio Negro,BR,73.26,overcast clouds,-0.41,-65.02,
528,Fuglebjerg,DK,62.51,moderate rain,55.31,11.55,
529,Paita,PE,67.73,scattered clouds,-5.09,-81.11,
530,Fukue,JP,89.96,few clouds,32.69,128.84,
531,Canarana,BR,63.07,clear sky,-11.68,-41.77,
532,Xanlar,AZ,67.51,broken clouds,40.59,46.32,
533,Berck,FR,62.58,overcast clouds,50.4,1.6,
534,Sinnamary,GF,77.49,clear sky,5.38,-52.95,
538,Havelock,US,82.94,broken clouds,34.88,-76.9,
540,Saryg-Sep,RU,64.42,moderate rain,51.5,95.6,
541,Bandipur,NP,73.71,overcast clouds,27.93,84.42,
542,Teya,RU,62.08,overcast clouds,60.38,92.63,
543,Raudeberg,NO,61.47,overcast clouds,61.99,5.14,
545,Rupert,US,83.64,clear sky,42.62,-113.68,
546,Glodeni,MD,70.39,few clouds,47.77,27.51,
547,Camocim,BR,77.14,overcast clouds,-2.9,-40.84,
548,Ratnagiri,IN,80.89,overcast clouds,16.98,73.3,
549,Acapulco,MX,80.64,broken clouds,16.86,-99.89,
550,Voh,NC,77.74,clear sky,-20.97,164.7,
551,Yellandu,IN,79.36,overcast clouds,17.6,80.33,
552,Naziya,RU,67.48,overcast clouds,59.8,31.38,
553,Pedernales,DO,81.18,broken clouds,18.04,-71.74,
554,Petropavlovsk-Kamchatskiy,RU,81.19,few clouds,53.05,158.65,
555,Brownwood,US,87.57,overcast clouds,31.71,-98.99,
556,Ayan,RU,62.73,few clouds,56.45,138.17,
557,Padang,ID,84.02,overcast clouds,-0.95,100.35,
559,Nambour,AU,77.34,clear sky,-26.63,152.95,
561,Rio Tuba,PH,85.44,broken clouds,8.51,117.43,
562,Baculin,PH,89.2,scattered clouds,7.45,126.58,
564,Jiangyou,CN,87.48,clear sky,31.77,104.72,
565,Nagato,JP,83.19,overcast clouds,34.38,131.2,
566,Alamos,MX,86.72,clear sky,27.02,-108.93,
567,Muroto,JP,81.39,overcast clouds,33.28,134.15,
568,Chamba,IN,77.5,moderate rain,32.57,76.13,
569,Sistranda,NO,64.36,broken clouds,63.73,8.83,
570,Lubao,PH,79.14,moderate rain,14.92,120.55,
571,Svetlogorsk,BY,63.0,overcast clouds,52.63,29.73,
572,Susaki,JP,86.31,broken clouds,33.37,133.28,
573,Kieta,PG,84.24,light rain,-6.22,155.63,
575,Aljezur,PT,61.93,clear sky,37.32,-8.8,
577,Lop Buri,TH,89.2,overcast clouds,14.8,100.65,
578,Bousso,TD,70.97,light rain,10.48,16.71,
579,Eresos,GR,76.51,clear sky,39.17,25.93,
581,Hovd,MN,74.91,clear sky,48.01,91.64,
582,Champerico,GT,83.35,few clouds,14.3,-91.92,
585,Woodbury,US,85.98,clear sky,42.38,-96.03,
586,Daura,NG,70.34,moderate rain,11.55,11.41,
587,Afikpo,NG,69.98,broken clouds,5.89,7.94,
588,Lipari,IT,81.79,clear sky,38.47,14.95,
589,Cocobeach,GA,75.13,light rain,1.0,9.58,
590,Muisne,EC,75.47,overcast clouds,0.6,-80.03,
593,Harper,LR,76.17,overcast clouds,4.38,-7.72,
594,Mbaiki,CF,69.48,overcast clouds,3.87,17.99,
595,Assiniboia,CA,81.88,overcast clouds,49.63,-105.98,
596,Mumford,GH,74.7,overcast clouds,5.26,-0.76,
597,Meulaboh,ID,82.92,broken clouds,4.14,96.13,
598,Vilhena,BR,70.05,scattered clouds,-12.74,-60.15,
599,Caravelas,BR,70.63,clear sky,-17.71,-39.25,
600,Tautira,PF,78.82,broken clouds,-17.73,-149.15,
603,Gat,IL,77.68,clear sky,31.61,34.76,
604,Muli,MV,80.53,light rain,2.92,73.57,
605,Katsuura,JP,86.14,overcast clouds,35.13,140.3,
606,Inirida,CO,72.73,overcast clouds,3.87,-67.92,
607,Moree,AU,71.62,clear sky,-29.47,149.85,
608,Jalu,LY,79.41,clear sky,29.03,21.55,
609,Saint-Pierre,RE,67.68,light rain,-21.34,55.48,
610,Cabinda,AO,72.68,light rain,-5.55,12.2,
611,Calamar,CO,76.95,overcast clouds,10.25,-74.91,
614,Laredo,US,89.89,clear sky,27.51,-99.51,
616,Topolevo,RU,89.78,scattered clouds,48.5,135.2,
617,San Juan Evangelista,MX,74.3,scattered clouds,17.9,-95.13,
619,Zaragoza,ES,70.02,clear sky,41.66,-0.88,
620,Puerto Narino,CO,75.15,scattered clouds,-3.77,-70.38,
621,Sena Madureira,BR,76.5,few clouds,-9.07,-68.66,
623,Beni,CD,62.29,moderate rain,0.5,29.47,
624,Kalmunai,LK,85.19,overcast clouds,7.42,81.82,
625,Tilichiki,RU,61.21,overcast clouds,60.47,166.1,
626,Syracuse,IT,80.89,clear sky,37.09,15.28,
627,Lazurne,UA,68.45,clear sky,46.08,32.53,
628,Sibolga,ID,84.42,broken clouds,1.74,98.78,
631,Shahrud,IR,76.84,clear sky,36.42,54.98,
632,Erzin,TR,83.12,clear sky,36.96,36.2,
634,Dorna,RO,65.97,scattered clouds,47.35,25.43,
635,Elizabeth City,US,82.42,clear sky,36.29,-76.25,
636,Coruripe,BR,72.64,clear sky,-10.13,-36.18,
637,Kalaleh,IR,81.14,broken clouds,37.38,55.49,
638,Kloulklubed,PW,83.77,overcast clouds,7.04,134.26,
639,Panzhihua,CN,74.93,moderate rain,26.59,101.71,
641,Casalmaggiore,IT,68.94,clear sky,44.99,10.42,
642,Kailua,US,87.78,light rain,21.4,-157.74,
643,Bosaso,SO,85.64,overcast clouds,11.28,49.18,
645,Kimbe,PG,86.77,light rain,-5.55,150.14,
646,Liusha,CN,83.39,few clouds,27.21,108.59,
647,Amapa,BR,70.61,clear sky,1.0,-52.0,
648,Okoneshnikovo,RU,64.71,clear sky,54.84,75.08,
650,Oriximina,BR,77.32,clear sky,-1.77,-55.87,
652,Tahta,EG,79.86,few clouds,26.77,31.5,
653,Costinesti,RO,75.02,clear sky,43.95,28.63,
655,Nabire,ID,87.55,overcast clouds,-3.37,135.48,
657,Ugoofaaru,MV,82.62,broken clouds,5.67,73.0,
658,Sovetskaya Gavan,RU,78.85,overcast clouds,48.97,140.29,
659,Tazmalt,DZ,82.56,clear sky,36.39,4.4,
662,Hatillo,PR,82.08,broken clouds,18.49,-66.83,
663,Filingue,NE,81.21,overcast clouds,14.35,3.32,
665,Andenes,NO,60.46,fog,69.31,16.12,
667,Moissala,TD,68.02,overcast clouds,8.34,17.77,
668,Najran,SA,79.05,few clouds,17.49,44.13,
669,Novaci,RO,70.74,clear sky,45.18,23.67,
671,Kulu,TR,64.02,clear sky,39.1,33.08,
672,Itoman,JP,88.18,broken clouds,26.12,127.67,
673,Djougou,BJ,70.05,light rain,9.71,1.67,
674,Zhanaozen,KZ,74.66,overcast clouds,43.3,52.8,
676,Paramonga,PE,64.54,broken clouds,-10.67,-77.83,
678,Kenai,US,69.03,clear sky,60.55,-151.26,
679,Chifeng,CN,78.69,light rain,42.27,118.96,
680,Margate,GB,63.03,overcast clouds,51.38,1.39,
681,Inzhavino,RU,65.55,scattered clouds,52.32,42.49,
682,Golden,US,86.36,few clouds,39.76,-105.22,
684,Moses Lake,US,79.48,clear sky,47.13,-119.28,
685,Nantucket,US,71.15,few clouds,41.28,-70.1,
